[
    {
        "name": "Zorba's",
        "locations": [
            {
                "address": "627 East Green Street, Champaign, IL 61820, United States of America",
                "coordinate": {
                    "latitude": 40.1102151,
                    "longitude": -88.22991
                }
            }
        ],
        "price": 10,
        "rating": 4.1,
        "reviews": 220
    },
    {
        "name": "The Red Herring Vegetarian Restaurant",
        "locations": [
            {
                "address": "The Red Herring, 1209 West Oregon Street, Urbana, IL 61801, United States of America",
                "coordinate": {
                    "latitude": 40.1067707,
                    "longitude": -88.2252161
                }
            }
        ],
        "price": 10,
        "rating": 4.4,
        "reviews": 123
    },
    {
        "name": "Pekara Bakery & Bistro",
        "locations": [
            {
                "address": "811 West Springfield Avenue, Champaign, IL 61820, United States of America",
                "coordinate": {
                    "latitude": 40.1125573,
                    "longitude": -88.2568443
                }
            },
            {
                "address": "116 North Neil Street, Champaign, IL 61820, United States of America",
                "coordinate": {
                    "latitude": 40.1170743,
                    "longitude": -88.2434103
                }
            }
        ],
        "price": 10,
        "rating": 4.2,
        "reviews": 108
    },
    {
        "name": "Neil St. Blues",
        "locations": [
            {
                "address": "Destihl Restaurant & Brew Works, 301 North Neil Street, Champaign, IL 61820, United States of America",
                "coordinate": {
                    "latitude": 40.1184918,
                    "longitude": -88.2437783
                }
            }
        ],
        "price": 40,
        "rating": 4.4,
        "reviews": 139
    },
    {
        "name": "Hamilton Walker's",
        "locations": [
            {
                "address": "201 North Neil Street, Champaign, IL 61820, United States of America",
                "coordinate": {
                    "latitude": 40.11758,
                    "longitude": -88.243638
                }
            }
        ],
        "price": 25,
        "rating": 4.3,
        "reviews": 382
    },
    {
        "name": "Pizzeria Antica",
        "locations": [
            {
                "address": "10 East Chester Street, Champaign, IL 61820, United States of America",
                "coordinate": {
                    "latitude": 40.1166868,
                    "longitude": -88.24282
                }
            }
        ],
        "price": 0,
        "rating": 4.5,
        "reviews": 230
    },
    {
        "name": "The Bread Company",
        "locations": [
            {
                "address": "706 South Goodwin Avenue, Urbana, IL 61801, United States of America",
                "coordinate": {
                    "latitude": 40.1068135,
                    "longitude": -88.223744
                }
            }
        ],
        "price": 25,
        "rating": 4.6,
        "reviews": 316
    },
    {
        "name": "Howdy Burger",
        "locations": [
            {
                "address": "625 East Green Street, Champaign, IL 61820, United States of America",
                "coordinate": {
                    "latitude": 40.1102146,
                    "longitude": -88.2299343
                }
            }
        ],
        "price": 10,
        "rating": 4.3,
        "reviews": 62
    },
    {
        "name": "Smackin' The Truck",
        "locations": [
            {
                "address": "Champaign, IL, United States of America",
                "coordinate": {
                    "latitude": 40.1164205,
                    "longitude": -88.2433829
                }
            }
        ],
        "price": 10,
        "rating": 3.7,
        "reviews": -1
    },
    {
        "name": "Blaze Pizza",
        "locations": [
            {
                "address": "Panda Express, 1401 West Green Street, Champaign, IL 61820, United States of America",
                "coordinate": {
                    "latitude": 40.1105736,
                    "longitude": -88.2291636
                }
            },
            {
                "address": "2506 North Prospect Avenue, Champaign, IL 61822, United States of America",
                "coordinate": {
                    "latitude": 40.1470569,
                    "longitude": -88.2578753
                }
            }
        ],
        "price": 10,
        "rating": 4.5,
        "reviews": 411
    },
    {
        "name": "Oh, Honey Pie Truck",
        "locations": [
            {
                "address": "101 North Neil Street, Champaign, IL 61820, United States of America",
                "coordinate": {
                    "latitude": 40.116876,
                    "longitude": -88.243624
                }
            }
        ],
        "price": 10,
        "rating": 3.7,
        "reviews": -1
    },
    {
        "name": "Cream & Flutter",
        "locations": [
            {
                "address": "Cream & Flutter, 114 North Walnut Street, Champaign, IL 61820, United States of America",
                "coordinate": {
                    "latitude": 40.1168349,
                    "longitude": -88.2421783
                }
            }
        ],
        "price": 10,
        "rating": 4.4,
        "reviews": 102
    },
    {
        "name": "Insomnia Cookies",
        "locations": [
            {
                "address": "Fat Sandwich, 502 East John Street, Champaign, IL 61820, United States of America",
                "coordinate": {
                    "latitude": 40.1091862,
                    "longitude": -88.2316942
                }
            }
        ],
        "price": 10,
        "rating": 3.5,
        "reviews": 115
    },
    {
        "name": "Cold Stone Creamery",
        "locations": [
            {
                "address": "Coldstone Ice Cream, 505 East Green Street, Champaign, IL 61820, United States of America",
                "coordinate": {
                    "latitude": 40.1101242,
                    "longitude": -88.2315244
                }
            }
        ],
        "price": 10,
        "rating": 4.1,
        "reviews": 121
    },
    {
        "name": "Cocomero",
        "locations": [
            {
                "address": "709 South Wright Street, Urbana, IL 61820, United States of America",
                "coordinate": {
                    "latitude": 40.1101496,
                    "longitude": -88.2289947
                }
            }
        ],
        "price": 10,
        "rating": 4.4,
        "reviews": 297
    },
    {
        "name": "Baskin Robbins",
        "locations": [
            {
                "address": "Dunkin' Donuts, 404 West University Avenue, Urbana, IL 61801, United States of America",
                "coordinate": {
                    "latitude": 40.1167409,
                    "longitude": -88.2114576
                }
            },
            {
                "address": "515 South Neil Street, Champaign, IL 61820, United States of America",
                "coordinate": {
                    "latitude": 40.1111121,
                    "longitude": -88.2435797
                }
            }
        ],
        "price": 10,
        "rating": 3.7,
        "reviews": 42
    },
    {
        "name": "Bevier Café",
        "locations": [
            {
                "address": "Bevier Bust, 905 South Goodwin Avenue, Urbana, IL 61801, United States of America",
                "coordinate": {
                    "latitude": 40.1047591,
                    "longitude": -88.2242089
                }
            }
        ],
        "price": 10,
        "rating": 4.5,
        "reviews": 22
    },
    {
        "name": "Rosati's Authentic Chicago Pizza",
        "locations": [
            {
                "address": "Kofusion, 701 South Gregory Street, Urbana, IL 61801, United States of America",
                "coordinate": {
                    "latitude": 40.1068667,
                    "longitude": -88.2217175
                }
            }
        ],
        "price": 25,
        "rating": 4,
        "reviews": 165
    },
    {
        "name": "Potbelly's",
        "locations": [
            {
                "address": "Potbelly Sandwich Shop, 501 East Green Street, Champaign, IL 61820, United States of America",
                "coordinate": {
                    "latitude": 40.1100816,
                    "longitude": -88.2318659
                }
            }
        ],
        "price": 10,
        "rating": 4.2,
        "reviews": 234
    },
    {
        "name": "Jupiter's Pizzeria and Billiards",
        "locations": [
            {
                "address": "Jupiter's Pizzeria & Billiards, 39 Main Street, Champaign, IL 61820, United States of America",
                "coordinate": {
                    "latitude": 40.1178875,
                    "longitude": -88.2414231
                }
            }
        ],
        "price": 10,
        "rating": 4.3,
        "reviews": 415
    },
    {
        "name": "J. Gumbo's Cajun and Creole Cooking Co.",
        "locations": [
            {
                "address": "bb.q premium chicken, 700 South Gregory Street, Urbana, IL 61801, United States of America",
                "coordinate": {
                    "latitude": 40.1063145,
                    "longitude": -88.2213205
                }
            }
        ],
        "price": 10,
        "rating": 4.5,
        "reviews": 164
    },
    {
        "name": "Great Harvest Bread Company",
        "locations": [
            {
                "address": "Champaign, IL, United States of America",
                "coordinate": {
                    "latitude": 40.11642,
                    "longitude": -88.24338
                }
            }
        ],
        "price": 10,
        "rating": 4.3,
        "reviews": 38
    },
    {
        "name": "Chipotle",
        "locations": [
            {
                "address": "Chipotle, 528 East Green Street, Champaign, IL 61820, United States of America",
                "coordinate": {
                    "latitude": 40.1104224,
                    "longitude": -88.2307897
                }
            }
        ],
        "price": 10,
        "rating": 4.1,
        "reviews": -1
    },
    {
        "name": "Black Dog Smoke & Ale House",
        "locations": [
            {
                "address": "Black Dog, 320 North Chestnut Street, Champaign, IL 61820, United States of America",
                "coordinate": {
                    "latitude": 40.1179467,
                    "longitude": -88.2402927
                }
            },
            {
                "address": "201 North Broadway Avenue, Urbana, IL 61801, United States of America",
                "coordinate": {
                    "latitude": 40.1149433,
                    "longitude": -88.207375
                }
            }
        ],
        "price": 25,
        "rating": 4.6,
        "reviews": 1
    },
    {
        "name": "Hendrick House",
        "locations": [
            {
                "address": "904 West Green Street, Urbana, IL 61801, United States of America",
                "coordinate": {
                    "latitude": 40.1106586,
                    "longitude": -88.2194882
                }
            }
        ],
        "price": 25,
        "rating": 4.1,
        "reviews": 51
    },
    {
        "name": "Blind Pig Brewery",
        "locations": [
            {
                "address": "120 North Neil Street, Champaign, IL 61820, United States of America",
                "coordinate": {
                    "latitude": 40.1171401,
                    "longitude": -88.2434108
                }
            }
        ],
        "price": 10,
        "rating": 4.7,
        "reviews": 163
    },
    {
        "name": "Timpone's",
        "locations": [
            {
                "address": "710 South Goodwin Avenue, Urbana, IL 61801, United States of America",
                "coordinate": {
                    "latitude": 40.1067818,
                    "longitude": -88.223744
                }
            }
        ],
        "price": 25,
        "rating": 4.3,
        "reviews": 153
    },
    {
        "name": "Cafe Sababa",
        "locations": [
            {
                "address": "503 East John Street, Champaign, IL 61820, United States of America",
                "coordinate": {
                    "latitude": 40.1089851,
                    "longitude": -88.2318309
                }
            }
        ],
        "price": 10,
        "rating": 5,
        "reviews": 4
    },
    {
        "name": "Vinny's Pizza",
        "locations": [
            {
                "address": "Vinny's by the slice and More, 50 East Green Street, Champaign, IL 61820, United States of America",
                "coordinate": {
                    "latitude": 40.1105116,
                    "longitude": -88.2399968
                }
            }
        ],
        "price": 10,
        "rating": 4.3,
        "reviews": 99
    },
    {
        "name": "Maize Mexican Grill",
        "locations": [
            {
                "address": "Maize Mexican Grill, 60 East Green Street, Champaign, IL 61820, United States of America",
                "coordinate": {
                    "latitude": 40.1104203,
                    "longitude": -88.2389625
                }
            }
        ],
        "price": 10,
        "rating": 4.6,
        "reviews": 736
    },
    {
        "name": "Garbanzo Mediterranean Fresh",
        "locations": [
            {
                "address": "Panda Express, 1401 West Green Street, Champaign, IL 61820, United States of America",
                "coordinate": {
                    "latitude": 40.1105736,
                    "longitude": -88.2291636
                }
            }
        ],
        "price": 10,
        "rating": 4.3,
        "reviews": 12
    },
    {
        "name": "Miga",
        "locations": [
            {
                "address": "Destihl Restaurant & Brew Works, 301 North Neil Street, Champaign, IL 61820, United States of America",
                "coordinate": {
                    "latitude": 40.1184918,
                    "longitude": -88.2437783
                }
            }
        ],
        "price": 70,
        "rating": 4.4,
        "reviews": 177
    },
    {
        "name": "Auntie Lee Chinese Kitchen",
        "locations": [
            {
                "address": "49 East Green Street, Champaign, IL 61820, United States of America",
                "coordinate": {
                    "latitude": 40.110122,
                    "longitude": -88.240425
                }
            }
        ],
        "price": 10,
        "rating": 3.1,
        "reviews": 40
    },
    {
        "name": "Y Eatery",
        "locations": [
            {
                "address": "1001 South Wright Street, Urbana, IL 61820, United States of America",
                "coordinate": {
                    "latitude": 40.106721,
                    "longitude": -88.228936
                }
            }
        ],
        "price": 10,
        "rating": 4.1,
        "reviews": 15
    },
    {
        "name": "Wingin' Out",
        "locations": [
            {
                "address": "WinginOut, 301 East Green Street, Champaign, IL 61820, United States of America",
                "coordinate": {
                    "latitude": 40.1099576,
                    "longitude": -88.2351344
                }
            }
        ],
        "price": 10,
        "rating": 2.7,
        "reviews": 92
    },
    {
        "name": "Szechuan China",
        "locations": [
            {
                "address": "401 South First Street, Champaign, IL 61820, United States of America",
                "coordinate": {
                    "latitude": 40.112815,
                    "longitude": -88.238824
                }
            }
        ],
        "price": 10,
        "rating": 3.6,
        "reviews": 104
    },
    {
        "name": "Sushi Rock",
        "locations": [
            {
                "address": "621 East Green Street, Champaign, IL 61820, United States of America",
                "coordinate": {
                    "latitude": 40.1102137,
                    "longitude": -88.2299831
                }
            }
        ],
        "price": 25,
        "rating": 4.2,
        "reviews": 82
    },
    {
        "name": "Sushi Kame",
        "locations": [
            {
                "address": "132 West Church Street, Champaign, IL 61820, United States of America",
                "coordinate": {
                    "latitude": 40.1183573,
                    "longitude": -88.2441267
                }
            }
        ],
        "price": 25,
        "rating": 4.4,
        "reviews": 216
    },
    {
        "name": "Sushi Ichiban",
        "locations": [
            {
                "address": "619 South Wright Street, Urbana, IL 61820, United States of America",
                "coordinate": {
                    "latitude": 40.1113373,
                    "longitude": -88.229
                }
            }
        ],
        "price": 10,
        "rating": 3.9,
        "reviews": 195
    },
    {
        "name": "Spoon House Korean Kitchen",
        "locations": [
            {
                "address": "Spoon House, 616 East Green Street, Champaign, IL 61820, United States of America",
                "coordinate": {
                    "latitude": 40.1104271,
                    "longitude": -88.2294153
                }
            }
        ],
        "price": 10,
        "rating": 4.3,
        "reviews": 103
    },
    {
        "name": "South China Restaurant",
        "locations": [
            {
                "address": "25 East Springfield Avenue, Champaign, IL 61820, United States of America",
                "coordinate": {
                    "latitude": 40.1125397,
                    "longitude": -88.240438
                }
            }
        ],
        "price": 25,
        "rating": 4.5,
        "reviews": -1
    },
    {
        "name": "Kung Fu BBQ",
        "locations": [
            {
                "address": "510 East John Street, Champaign, IL 61820, United States of America",
                "coordinate": {
                    "latitude": 40.1091508,
                    "longitude": -88.2317231
                }
            }
        ],
        "price": 25,
        "rating": 3.7,
        "reviews": 83
    },
    {
        "name": "Chopstix",
        "locations": [
            {
                "address": "Chop Stix, 202 East Green Street, Champaign, IL 61820, United States of America",
                "coordinate": {
                    "latitude": 40.1103401,
                    "longitude": -88.2366394
                }
            }
        ],
        "price": 10,
        "rating": 3.5,
        "reviews": 105
    },
    {
        "name": "Pho Cafe",
        "locations": [
            {
                "address": "611 East Green Street, Champaign, IL 61820, United States of America",
                "coordinate": {
                    "latitude": 40.1102113,
                    "longitude": -88.2301051
                }
            }
        ],
        "price": 10,
        "rating": 4.2,
        "reviews": 138
    },
    {
        "name": "Perkin's Restaurant & Bakery",
        "locations": [
            {
                "address": "1214 West University Avenue, Urbana, IL 61801, United States of America",
                "coordinate": {
                    "latitude": 40.1164773,
                    "longitude": -88.2243934
                }
            }
        ],
        "price": 10,
        "rating": 4.1,
        "reviews": 567
    },
    {
        "name": "Peking Garden",
        "locations": [
            {
                "address": "Ebbe's Professional Counseling Services, LLC, 206 North Randolph Street, Champaign, IL 61820, United States of America",
                "coordinate": {
                    "latitude": 40.1180507,
                    "longitude": -88.2448957
                }
            }
        ],
        "price": 25,
        "rating": 4.2,
        "reviews": 135
    },
    {
        "name": "Noodles & Co.",
        "locations": [
            {
                "address": "Chipotle, 528 East Green Street, Champaign, IL 61820, United States of America",
                "coordinate": {
                    "latitude": 40.1104224,
                    "longitude": -88.2307897
                }
            }
        ],
        "price": 10,
        "rating": 4.1,
        "reviews": 251
    },
    {
        "name": "Niro's Gyros",
        "locations": [
            {
                "address": "WinginOut, 301 East Green Street, Champaign, IL 61820, United States of America",
                "coordinate": {
                    "latitude": 40.1099576,
                    "longitude": -88.2351344
                }
            },
            {
                "address": "West Springfield Avenue, Urbana, IL 61801, United States of America",
                "coordinate": {
                    "latitude": 40.112804,
                    "longitude": -88.2177181
                }
            }
        ],
        "price": 10,
        "rating": 4,
        "reviews": 164
    },
    {
        "name": "Murphy's Pub",
        "locations": [
            {
                "address": "Murphy's Pub, 604 East Green Street, Champaign, IL 61820, United States of America",
                "coordinate": {
                    "latitude": 40.1104224,
                    "longitude": -88.2300402
                }
            }
        ],
        "price": 10,
        "rating": 4.3,
        "reviews": 590
    },
    {
        "name": "Mia Za's",
        "locations": [
            {
                "address": "Mia Za's, 629 East Green Street, Champaign, IL 61820, United States of America",
                "coordinate": {
                    "latitude": 40.1101957,
                    "longitude": -88.2292323
                }
            }
        ],
        "price": 10,
        "rating": 4.4,
        "reviews": 393
    },
    {
        "name": "Merry Ann's Diner",
        "locations": [
            {
                "address": "Kofusion, 701 South Gregory Street, Urbana, IL 61801, United States of America",
                "coordinate": {
                    "latitude": 40.1068667,
                    "longitude": -88.2217175
                }
            },
            {
                "address": "Merry Ann's Diner, 1510 South Neil Street, Champaign, IL 61820, United States of America",
                "coordinate": {
                    "latitude": 40.0983917,
                    "longitude": -88.244247
                }
            }
        ],
        "price": 10,
        "rating": 3.9,
        "reviews": -1
    },
    {
        "name": "Manzella's Italian Patio",
        "locations": [
            {
                "address": "Manzella's, 115 South First Street, Champaign, IL 61820, United States of America",
                "coordinate": {
                    "latitude": 40.1158474,
                    "longitude": -88.2389717
                }
            }
        ],
        "price": 25,
        "rating": 4.5,
        "reviews": 189
    },
    {
        "name": "Manolo's Pizza & Empanadas",
        "locations": [
            {
                "address": "1115 West Oregon Street, Urbana, IL 61801, United States of America",
                "coordinate": {
                    "latitude": 40.1069133,
                    "longitude": -88.2219766
                }
            }
        ],
        "price": 10,
        "rating": 4.4,
        "reviews": 214
    },
    {
        "name": "Mandarin Wok",
        "locations": [
            {
                "address": "403 East Green Street, Champaign, IL 61820, United States of America",
                "coordinate": {
                    "latitude": 40.1101812,
                    "longitude": -88.2333562
                }
            }
        ],
        "price": 10,
        "rating": 4.1,
        "reviews": 103
    },
    {
        "name": "Lai Lai Wok",
        "locations": [
            {
                "address": "E Green St, Champaign, IL, United States of America",
                "coordinate": {
                    "latitude": 40.110336,
                    "longitude": -88.23352
                }
            }
        ],
        "price": 25,
        "rating": 4.2,
        "reviews": 174
    },
    {
        "name": "Kyoto Sushi",
        "locations": [
            {
                "address": "611 East Green Street, Champaign, IL 61820, United States of America",
                "coordinate": {
                    "latitude": 40.1102113,
                    "longitude": -88.2301051
                }
            }
        ],
        "price": 25,
        "rating": 4.5,
        "reviews": -1
    },
    {
        "name": "Joe's Brewery",
        "locations": [
            {
                "address": "706 South Fifth Street, Champaign, IL 61820, United States of America",
                "coordinate": {
                    "latitude": 40.1101036,
                    "longitude": -88.2319433
                }
            }
        ],
        "price": 10,
        "rating": 4.1,
        "reviews": 284
    },
    {
        "name": "Jerusalem Restaurant",
        "locations": [
            {
                "address": "601 South Wright Street, Champaign, IL 61820, United States of America",
                "coordinate": {
                    "latitude": 40.111385,
                    "longitude": -88.229002
                }
            }
        ],
        "price": 10,
        "rating": 4.3,
        "reviews": 89
    },
    {
        "name": "Fat Sandwich Company",
        "locations": [
            {
                "address": "Fat Sandwich, 502 East John Street, Champaign, IL 61820, United States of America",
                "coordinate": {
                    "latitude": 40.1091862,
                    "longitude": -88.2316942
                }
            }
        ],
        "price": 10,
        "rating": 4,
        "reviews": 116
    },
    {
        "name": "Intermezzo Café at Krannert",
        "locations": [
            {
                "address": "Studio Theater, 500 South Goodwin Avenue, Urbana, IL 61801, United States of America",
                "coordinate": {
                    "latitude": 40.1086266,
                    "longitude": -88.2228056
                }
            }
        ],
        "price": 10,
        "rating": 4.4,
        "reviews": 25
    },
    {
        "name": "Hot Wok Express",
        "locations": [
            {
                "address": "1102 West University Avenue, Urbana, IL 61801, United States of America",
                "coordinate": {
                    "latitude": 40.116488,
                    "longitude": -88.222541
                }
            }
        ],
        "price": 10,
        "rating": 3.8,
        "reviews": 160
    },
    {
        "name": "Home of Gourmet Chinese & Thai",
        "locations": [
            {
                "address": "604 East Daniel Street, Urbana, IL 61820, United States of America",
                "coordinate": {
                    "latitude": 40.1080534,
                    "longitude": -88.2301372
                }
            }
        ],
        "price": 10,
        "rating": 3.8,
        "reviews": 56
    },
    {
        "name": "Fresh International Market",
        "locations": [
            {
                "address": "505 South Neil Street, Champaign, IL 61820, United States of America",
                "coordinate": {
                    "latitude": 40.1114493,
                    "longitude": -88.2435837
                }
            }
        ],
        "price": 40,
        "rating": 4.5,
        "reviews": 339
    },
    {
        "name": "Cravings",
        "locations": [
            {
                "address": "603 South Wright Street, Urbana, IL 61820, United States of America",
                "coordinate": {
                    "latitude": 40.1113797,
                    "longitude": -88.2290018
                }
            }
        ],
        "price": 10,
        "rating": 4.3,
        "reviews": 338
    },
    {
        "name": "Espresso Royale",
        "locations": [
            {
                "address": "500 Peabody Drive, Urbana, IL 61820, United States of America",
                "coordinate": {
                    "latitude": 40.1015561,
                    "longitude": -88.2317856
                }
            },
            {
                "address": "College of Business Instructional Facility, 515 East Gregory Drive, Champaign, IL 61820, United States of America",
                "coordinate": {
                    "latitude": 40.1035815,
                    "longitude": -88.2305751
                }
            },
            {
                "address": "E Daniel St, Champaign, IL, United States of America",
                "coordinate": {
                    "latitude": 40.108044,
                    "longitude": -88.230322
                }
            },
            {
                "address": "Undergraduate Library, 1402 West Gregory Drive, Urbana, IL 61801, United States of America",
                "coordinate": {
                    "latitude": 40.1047306,
                    "longitude": -88.2271776
                }
            },
            {
                "address": "W Oregon St, Urbana, IL, United States of America",
                "coordinate": {
                    "latitude": 40.106921,
                    "longitude": -88.22182
                }
            },
            {
                "address": "Village Green Place, Champaign, IL 61822, United States of America",
                "coordinate": {
                    "latitude": 40.0840034,
                    "longitude": -88.2964708
                }
            },
            {
                "address": "Espresso Royale, 1411 South Neil Street, Champaign, IL 61820-6974, United States of America",
                "coordinate": {
                    "latitude": 40.0995347,
                    "longitude": -88.2447961
                }
            }
        ],
        "price": 10,
        "rating": 3.3,
        "reviews": -1
    },
    {
        "name": "Caffe Bene",
        "locations": [
            {
                "address": "Caffe Bene, 524 East Green Street, Champaign, IL 61820, United States of America",
                "coordinate": {
                    "latitude": 40.1104252,
                    "longitude": -88.2309368
                }
            },
            {
                "address": "bb.q premium chicken, 700 South Gregory Street, Urbana, IL 61801, United States of America",
                "coordinate": {
                    "latitude": 40.1063145,
                    "longitude": -88.2213205
                }
            }
        ],
        "price": 10,
        "rating": 3,
        "reviews": -1
    },
    {
        "name": "Burrito King",
        "locations": [
            {
                "address": "East Green Street, Champaign, IL 61820, United States of America",
                "coordinate": {
                    "latitude": 40.110205,
                    "longitude": -88.240265
                }
            }
        ],
        "price": 10,
        "rating": 4,
        "reviews": 271
    },
    {
        "name": "Brothers Bar & Grill",
        "locations": [
            {
                "address": "613 East Green Street, Champaign, IL 61820, United States of America",
                "coordinate": {
                    "latitude": 40.1102118,
                    "longitude": -88.2300807
                }
            }
        ],
        "price": 10,
        "rating": 4,
        "reviews": 162
    },
    {
        "name": "Bo Bo China",
        "locations": [
            {
                "address": "Jurassic Grill, 404 East Green Street, Champaign, IL 61801, United States of America",
                "coordinate": {
                    "latitude": 40.1103981,
                    "longitude": -88.2331124
                }
            }
        ],
        "price": 10,
        "rating": 3.7,
        "reviews": 72
    },
    {
        "name": "Basil Thai Café",
        "locations": [
            {
                "address": "Kofusion, 701 South Gregory Street, Urbana, IL 61801, United States of America",
                "coordinate": {
                    "latitude": 40.1068667,
                    "longitude": -88.2217175
                }
            }
        ],
        "price": 10,
        "rating": 3.7,
        "reviews": 129
    },
    {
        "name": "Bangkok Thai & Pho 911",
        "locations": [
            {
                "address": "410 East Green Street, Champaign, IL 61820, United States of America",
                "coordinate": {
                    "latitude": 40.1103465,
                    "longitude": -88.2332646
                }
            }
        ],
        "price": 10,
        "rating": 4.5,
        "reviews": 359
    },
    {
        "name": "BrewLab Coffee",
        "locations": [
            {
                "address": "Campus Mobile Solutions, 630 South Fifth Street, Champaign, IL 61820, United States of America",
                "coordinate": {
                    "latitude": 40.1107382,
                    "longitude": -88.2319178
                }
            }
        ],
        "price": 0,
        "rating": 4.7,
        "reviews": 139
    },
    {
        "name": "Flying Machine Avionics",
        "locations": [
            {
                "address": "Avionics, 202 South First Street, Champaign, IL 61820, United States of America",
                "coordinate": {
                    "latitude": 40.1151976,
                    "longitude": -88.2385343
                }
            }
        ],
        "price": 0,
        "rating": 4.8,
        "reviews": 122
    },
    {
        "name": "Jurassic Grill",
        "locations": [
            {
                "address": "East Green Street, Champaign, IL 61820, United States of America",
                "coordinate": {
                    "latitude": 40.110205,
                    "longitude": -88.240265
                }
            }
        ],
        "price": 10,
        "rating": 4.3,
        "reviews": 152
    },
    {
        "name": "Destihl Brew Works",
        "locations": [
            {
                "address": "Destihl Restaurant & Brew Works, 301 North Neil Street, Champaign, IL 61820, United States of America",
                "coordinate": {
                    "latitude": 40.1184918,
                    "longitude": -88.2437783
                }
            }
        ],
        "price": 40,
        "rating": 4.6,
        "reviews": 574
    },
    {
        "name": "Golden Harbor",
        "locations": [
            {
                "address": "505 South Neil Street, Champaign, IL 61820, United States of America",
                "coordinate": {
                    "latitude": 40.1114493,
                    "longitude": -88.2435837
                }
            }
        ],
        "price": 25,
        "rating": 4.6,
        "reviews": 706
    },
    {
        "name": "Fiesta Café",
        "locations": [
            {
                "address": "Fiesta Cafe, 216 South First Street, Champaign, IL 61820, United States of America",
                "coordinate": {
                    "latitude": 40.1147731,
                    "longitude": -88.2384771
                }
            }
        ],
        "price": 10,
        "rating": 4.2,
        "reviews": 394
    },
    {
        "name": "Evo Café",
        "locations": [
            {
                "address": "S 6th St, Champaign, IL, United States of America",
                "coordinate": {
                    "latitude": 40.110158,
                    "longitude": -88.230465
                }
            }
        ],
        "price": 10,
        "rating": 4,
        "reviews": 100
    },
    {
        "name": "Esquire Lounge",
        "locations": [
            {
                "address": "106 North Walnut Street, Champaign, IL 61820, United States of America",
                "coordinate": {
                    "latitude": 40.1166611,
                    "longitude": -88.2424063
                }
            }
        ],
        "price": 10,
        "rating": 4.4,
        "reviews": 670
    },
    {
        "name": "Empire Chinese Restaurant",
        "locations": [
            {
                "address": "410 East Green Street, Champaign, IL 61820, United States of America",
                "coordinate": {
                    "latitude": 40.1103465,
                    "longitude": -88.2332646
                }
            }
        ],
        "price": 10,
        "rating": 3.6,
        "reviews": 60
    },
    {
        "name": "Cracked: The Egg Came First",
        "locations": [
            {
                "address": "619 East Green Street, Champaign, IL 61820, United States of America",
                "coordinate": {
                    "latitude": 40.1102132,
                    "longitude": -88.2300075
                }
            }
        ],
        "price": 10,
        "rating": 4.5,
        "reviews": 90
    },
    {
        "name": "Cowboy Monkey",
        "locations": [
            {
                "address": "Cowboy Monkey, 6 Taylor Street, Champaign, IL 61820, United States of America",
                "coordinate": {
                    "latitude": 40.1174716,
                    "longitude": -88.2431617
                }
            }
        ],
        "price": 10,
        "rating": 4.1,
        "reviews": 189
    },
    {
        "name": "Caffé Paradiso",
        "locations": [
            {
                "address": "Caffe Paradiso, 801 South Lincoln Avenue, Urbana, IL 61801, United States of America",
                "coordinate": {
                    "latitude": 40.1057621,
                    "longitude": -88.2194361
                }
            }
        ],
        "price": 10,
        "rating": 4.4,
        "reviews": 186
    },
    {
        "name": "Bombay Indian Grill",
        "locations": [
            {
                "address": "401 East Green Street, Champaign, IL 61820, United States of America",
                "coordinate": {
                    "latitude": 40.110181,
                    "longitude": -88.23338
                }
            }
        ],
        "price": 25,
        "rating": 4.1,
        "reviews": 114
    },
    {
        "name": "Aroma Cafe",
        "locations": [
            {
                "address": "118 North Neil Street, Champaign, IL 61820, United States of America",
                "coordinate": {
                    "latitude": 40.1171072,
                    "longitude": -88.2434106
                }
            }
        ],
        "price": 40,
        "rating": 4.6,
        "reviews": 217
    },
    {
        "name": "Ambar India",
        "locations": [
            {
                "address": "605 South Wright Street, Champaign, IL 61820, United States of America",
                "coordinate": {
                    "latitude": 40.1113744,
                    "longitude": -88.2290016
                }
            }
        ],
        "price": 10,
        "rating": 3.9,
        "reviews": 268
    },
    {
        "name": "A-Ri-Rang",
        "locations": [
            {
                "address": "607 South Wright Street, Urbana, IL 61820, United States of America",
                "coordinate": {
                    "latitude": 40.1113691,
                    "longitude": -88.2290013
                }
            }
        ],
        "price": 10,
        "rating": 4.6,
        "reviews": 97
    },
    {
        "name": "Seven Saints",
        "locations": [
            {
                "address": "Seven Saints, 32 East Chester Street, Champaign, IL 61820, United States of America",
                "coordinate": {
                    "latitude": 40.1165582,
                    "longitude": -88.2419945
                }
            }
        ],
        "price": 25,
        "rating": 4.6,
        "reviews": 980
    },
    {
        "name": "The Pop Stop",
        "locations": [
            {
                "address": "Main St, Champaign, IL, United States of America",
                "coordinate": {
                    "latitude": 40.118167,
                    "longitude": -88.243474
                }
            }
        ],
        "price": 10,
        "rating": 4.5,
        "reviews": 2
    },
    {
        "name": "Legends Bar & Grill",
        "locations": [
            {
                "address": "522 East Green Street, Champaign, IL 61820, United States of America",
                "coordinate": {
                    "latitude": 40.1103677,
                    "longitude": -88.2315951
                }
            }
        ],
        "price": 10,
        "rating": 4.2,
        "reviews": 373
    },
    {
        "name": "Sakanaya",
        "locations": [
            {
                "address": "Sakayana, 403 East Green Street, Champaign, IL 61820, United States of America",
                "coordinate": {
                    "latitude": 40.1101552,
                    "longitude": -88.2330881
                }
            }
        ],
        "price": 25,
        "rating": 4.7,
        "reviews": 582
    },
    {
        "name": "Quality Bar",
        "locations": [
            {
                "address": "110 North Neil Street, Champaign, IL 61820, United States of America",
                "coordinate": {
                    "latitude": 40.1169757,
                    "longitude": -88.2434097
                }
            }
        ],
        "price": 10,
        "rating": 4.5,
        "reviews": 220
    }
]